,City,Latitude,Longitude,Temperature,Humidity,Wind_Speed,Cloudiness
0,bluff,-23.58,149.07,59.27,40,10.54,0
1,rikitea,-23.12,-134.97,74.93,79,14.38,100
2,gao,16.28,-0.04,107.33,10,5.73,68
3,leningradskiy,69.38,178.42,31.73,92,2.37,100
4,vanavara,60.35,102.28,37.49,51,4.05,64
